{
    "Shih Tzu": [
        {
            "nome": "Canil Shih Tzu | Moura Lessa",
            "instagram": "mouralessa",
            "phone": "+55 81 9837-8588"
        },
        {
            "nome": "Mundo Shih Tzu",
            "instagram": "mundoshihtzus",
            "phone": ""
        },
        {
            "nome": "Canil Abdels Shing",
            "instagram": "canil_abdelshing",
            "phone": "51 998766890"
        },
        {
            "nome": "C A N I L Shih Land",
            "instagram": "canil_shihland",
            "phone": "+55 11 99636-8080",
            "location": "Várzea Paulista-SP"
        },
        {
            "nome": "Canil Rangel - Shih Tzu ",
            "instagram": "canil_rangel",
            "phone": "+55 11 9 8636-6580",
            "location": "Cabreuva- SP"
        }
    ],
    "Yorkshire Terrier": [
        {
            "nome": "Canil Zunta Yorkshire Terriers",
            "instagram": "zuntayorkies",
            "phone": "+55 11 98406-1014",
            "location": "São Paulo"
        },
        {
            "nome": "Yorkshire - Friendly Kennel",
            "instagram": "friendlykennel",
            "phone": "(19) 99943-8569 "
        },
        {
            "nome": "Poodle toys e yorkshires",
            "instagram": "canil_poodle_yorkshires",
            "phone": "31989073158"
        },
        {
            "nome": "Kennel Nomlac Terroms",
            "instagram": "anajuliacalmon",
            "phone": "27 30350070 "
        }
    ],
    "Labrador": [
        {
            "nome": "Canil Buccleuch",
            "instagram": "canil_labrador",
            "phone": "(41)999944545"
        },
        {
            "nome": "Canil Buddy Hunter",
            "instagram": "buddyhunterlabs",
            "phone": "(11)999296860 ou (11)986564777"
        },
        {
            "nome": "Labradores Terras Do Ceara",
            "instagram": "labradoresterrasdoceara",
            "phone": "+55 85 99639-9781"
        },
        {
            "nome": "Canil Bicame Lab",
            "instagram": "bicame",
            "phone": "(31) 99520-9500"
        },
        {
            "nome": "Canil Duck's Lagoon",
            "instagram": "duckslagoonkennel",
            "phone": ""
        },
        {
            "nome": "CANIL REANFER",
            "instagram": "canilreanfer",
            "phone": "+55 21 96430-5032"
        },
        {
            "nome": "Canil Magi",
            "instagram": "canilmagi",
            "phone": "48 999589988",
            "location": "Imaruí / SC"
        }
    ],
    "Pinscher Alemão": [
        {
            "nome": "Canil Alemao Filhotes",
            "instagram": "canil.alemaofilhotes",
            "phone": "11 999521541",
            "location": "Suzano/SP"
        },
        {
            "nome": "Canil Amor de Filhote",
            "instagram": "canil_amordefilhote",
            "phone": "+55 47 98801-1643",
            "location": "SANTA CATARINA"
        },
        {
            "nome": "Canil Pinscherlandia",
            "instagram": "pinscherlandia_mundodospinsche",
            "phone": "(11) 99742.1000",
            "location": "Jundiaí-SP"
        },
        {
            "nome": "Canil Multi Raças Imperatriz",
            "instagram": "canilmultimperatriz",
            "phone": "(99)99168-5694",
            "location": "Maranhão"
        },
        {
            "nome": "Canil Teresina Cães E Filhotes",
            "instagram": "teresinacanil_cesar_pet_filho",
            "phone": "(86)9 9456-4615",
            "location": "TERESINA"
        }
    ],
    "Poodle" : [
        {
            "nome": "Canil dos Sonhos",
            "instagram": "canildossonhos",
            "phone": "+55 21 98132-7366",
            "location": "RJ"
        },
        {
            "nome": "Canil Bellos Pelos",
            "instagram": "canilbellos",
            "phone": "51 992439666"
        },
        {
            "nome": "Canil Sophistiqué Parloir",
            "instagram": "canilsparloir",
            "phone": "+55 41 99235-2695"
        },
        {
            "nome": "Canil Maison d’Maia",
            "instagram": "canil_maisondmaia",
            "phone": ""
        },
        {
            "nome": "Canil Quindim",
            "instagram": "canilquindim",
            "phone": ""
        },
        {
            "nome": "Canil Cham Dream",
            "instagram": "canilchamdream",
            "phone": "(79) 99106-1516",
            "location": "Aracaju SE"
        },
        {
            "nome": "Canil Baby",
            "instagram": "babydogpaola",
            "phone": "31 989611195",
            "location": "Bh"
        },
        {
            "nome": "Cão & Cia , Bom pra Cachorro",
            "instagram": "canilcaoecia",
            "phone": "+55 71 98855-3572"
        }
    ],
    "Maltês" : [
        {
            "nome": "Canil Maltês HeroesandFriends",
            "instagram": "canilheroesandfriends",
            "phone": "11 989974262"
        },
        {
            "nome": "Canil Maltes Lulu",
            "instagram": "canilmalteslulu",
            "phone": "(11)973152484"
        },
        {
            "nome": "They're The best Maltês",
            "instagram": "maltestheyrethebest",
            "phone": "+55 11 7218-4644"
        },
        {
            "nome": "Canil Dirraus",
            "instagram": "canildirraus",
            "phone": "(19) 99206-7434"
        },
        {
            "nome": "Canil Little Crystal Oficial",
            "instagram": "canillcoficial",
            "phone": "1194757-5855"
        },
        {
            "nome": "Canil Pupp's Angelys Ariel",
            "instagram": "canilariel",
            "phone": "71 9 9366 4958"
        },
        {
            "nome": "Canil Manto Branco",
            "instagram": "canilmantobranco",
            "phone": "+55 22 99797-4529"
        },
        {
            "nome": "Canil Maltês Quinta de Barbosa",
            "instagram": "canilmaltesquintadebarbosa",
            "phone": ""
        },
        {
            "nome": "Preciosos da Bê",
            "instagram": "preciososdabe",
            "phone": "11 94283.9238"
        },
        {
            "nome": "Canil & Clínica Iqbal",
            "instagram": "canil_iqbal",
            "phone": "+55 21 98033-6566",
            "location": "Rio de Janeiro | RJ"
        }
    ],
    "Pug" : [
        {
            "nome": "Canil Pugs Marines",
            "instagram": "canil_pugs_marines",
            "phone": "+55 21 96447-4063"
        },
        {
            "nome": "Canil Pug Mania",
            "instagram": "canilpugmania",
            "phone": " +55 11 97315-7011",
            "location": "SP"
        },
        {
            "nome": "Canil Puppy Star",
            "instagram": "canilpuppystar",
            "phone": "(51) 99623 9890"
        },
        {
            "nome": "Belladogs Pugs",
            "instagram": "belladogspugs",
            "phone": "(71) 9 9211-1705"
        },
        {
            "nome": "Bulldog Francês & Pug",
            "instagram": "angelluspugbull",
            "phone": ""
        },
        {
            "nome": "Sophia's Kennel",
            "instagram": "canilpugsk",
            "phone": "+55 11 95378-3375",
            "location": "SP"
        },
        {
            "nome": "Canil Vale dos Vieiras",
            "instagram": "canilvaledosvieiras",
            "phone": "(21) 96454-2059"
        },
        {
            "nome": "Andmon Pugs",
            "instagram": "andmonpugs",
            "phone": "+ 55 17991346242"
        }
    ]
}